,title,price,brand,latitude,longitude
0,Liberty Tapping,159.5,Liberty,-31.720162,115.783898
1,Liberty Banksia Grove,161.5,Liberty,-31.703225,115.798512
2,Liberty Landsdale,161.5,Liberty,-31.802758,115.837737
3,United Tapping,161.5,United,-31.719744,115.783408
4,EG Ampol Joondalup Winton Road,161.9,EG Ampol,-31.74449,115.763128
5,Shell Alkimos,162.3,Shell,-31.628239,115.69118
6,Metro Malaga,163.3,Metro Petroleum,-31.855778,115.891559
7,X Convenience Alkimos,163.5,X Convenience,-31.621433,115.688754
8,Puma Merriwa,163.7,Puma,-31.659802,115.706131
9,Vibe Morley,163.7,Vibe,-31.887832,115.889889
10,Puma Neerabup,163.7,Puma,-31.67127,115.742022
22,EG Ampol Greenwood,163.9,EG Ampol,-31.822072,115.820539
11,EG Ampol Alkimos,163.9,EG Ampol,-31.601902,115.680898
13,7-Eleven Bassendean,163.9,7-Eleven,-31.9063297,115.9308682
14,Vibe Beechboro,163.9,Vibe,-31.869,115.924439
23,Caltex Joondalup,163.9,Caltex,-31.728704,115.76494
19,Ampol Foodary Doubleview,163.9,Ampol,-31.901328,115.794203
17,7-Eleven Caversham,163.9,7-Eleven,-31.875469,115.974566
18,Ampol Foodary Clarkson,163.9,Ampol,-31.689369,115.715226
20,EG Ampol Ellenbrook,163.9,EG Ampol,-31.780889,115.969189
21,Ampol Foodary Glendalough,163.9,Ampol,-31.922426,115.819754
15,7-Eleven Butler,163.9,7-Eleven,-31.635358,115.705554
16,Ampol Foodary Butler,163.9,Ampol,-31.65413,115.71258
12,EG Ampol Banksia Grove,163.9,EG Ampol,-31.70446,115.803863
27,Caltex Malaga,163.9,Caltex,-31.85295,115.882059
30,EG Ampol Mirrabooka,163.9,EG Ampol,-31.873567,115.861407
31,Ampol Foodary Morley,163.9,Ampol,-31.876015,115.92532
26,7-Eleven Landsdale,163.9,7-Eleven,-31.804934,115.835741
28,7-Eleven Malaga,163.9,7-Eleven,-31.856778,115.908098
29,Ampol Foodary Malaga Drive,163.9,Ampol,-31.863189,115.893921
24,Ampol Foodary Joondalup,163.9,Ampol,-31.741328,115.764003
36,Caltex Yanchep,163.9,Caltex,-31.547779,115.641352
32,7-Eleven Morley,163.9,7-Eleven,-31.903344,115.903047
33,EG Ampol Morley Galleria,163.9,EG Ampol,-31.896262,115.895092
35,Ampol Foodary East Perth,163.9,Ampol,-31.948689,115.869567
25,Ampol Foodary Kingsley,163.9,Ampol,-31.807038,115.788723
34,Ampol Foodary North Wanneroo,163.9,Ampol,-31.625661,115.718259
37,Puma Kiara,164.2,Puma,-31.887138,115.93832
42,BP 2go Noranda,164.9,BP,-31.875859,115.894223
39,BP Jindalee,164.9,BP,-31.636611,115.689599
38,United Ellenbrook,164.9,United,-31.77852,115.96699
41,United Neerabup,164.9,United,-31.672434,115.743141
40,BP Malaga,164.9,BP,-31.862067,115.894445
43,Puma Madeley,165.2,Puma,-31.817018,115.821127
44,United Osborne Park,165.3,United,-31.904837,115.80609
45,Vibe Osborne Park,165.3,Vibe,-31.90631,115.813744
46,United Bassendean,165.5,United,-31.905283,115.932367
47,Vibe Bassendean,165.5,Vibe,-31.901105,115.959118
48,Vibe Bedford,165.5,Vibe,-31.9,115.889257
49,Vibe Subiaco,165.5,Vibe,-31.952307,115.83115
59,Puma Wanneroo,165.7,Puma,-31.752615,115.803432
51,Puma Dianella,165.7,Puma,-31.906435,115.881917
52,Puma Gwelup,165.7,Puma,-31.876337,115.79678
53,Puma Landsdale,165.7,Puma,-31.801116,115.841526
60,Puma North Perth,165.7,Puma,-31.936638,115.85796
54,Puma Mindarie,165.7,Puma,-31.693672,115.713732
56,Puma Osborne Park,165.7,Puma,-31.913639,115.828363
57,Puma Pearsall,165.7,Puma,-31.785754,115.826174
58,Puma Wangara,165.7,Puma,-31.786174,115.819241
55,Puma Mount Lawley,165.7,Puma,-31.934473,115.884014
50,Puma Bayswater,165.7,Puma,-31.919556,115.929069
64,7-Eleven Balcatta,165.9,7-Eleven,-31.860353,115.80964
66,Ampol Foodary Northlands,165.9,Ampol,-31.872542,115.830984
67,EG Ampol Ballajura,165.9,EG Ampol,-31.847444,115.906385
68,Coles Express Banksia Grove,165.9,Coles Express,-31.70653,115.802679
69,7-Eleven Banksia Grove,165.9,7-Eleven,-31.703423,115.804315
72,Caltex Dayton,165.9,Caltex,-31.851089,115.968786
71,EG Ampol Currambine Marketplace,165.9,EG Ampol,-31.742211,115.740365
78,BP Embleton,165.9,BP,-31.8951,115.923206
74,Coles Express Duncraig,165.9,Coles Express,-31.835583,115.782828
75,7-Eleven Malvern Springs,165.9,7-Eleven,-31.766075,115.985544
76,BP Ellenbrook,165.9,BP,-31.775436,115.963073
63,Caltex Balcatta,165.9,Caltex,-31.862537,115.819152
61,Ampol Foodary Ashby,165.9,Ampol,-31.73256,115.80416
70,Coles Express Clarkson,165.9,Coles Express,-31.691894,115.716118
62,EG Ampol Aveley,165.9,EG Ampol,-31.777467,115.987368
73,EG Ampol Dianella,165.9,EG Ampol,-31.89674,115.871865
77,Coles Express Ellenbrook,165.9,Coles Express,-31.775,115.96
65,7-Eleven Stirling,165.9,7-Eleven,-31.8734,115.828839
79,EG Ampol Floreat,165.9,EG Ampol,-31.93672,115.793911
83,Ampol Foodary Malaga,165.9,Ampol,-31.848235,115.878484
85,Coles Express Mount Lawley,165.9,Coles Express,-31.923821,115.859281
86,Coles Express Ocean Reef,165.9,Coles Express,-31.76744,115.749421
87,Coles Express Osborne Park,165.9,Coles Express,-31.907535,115.819092
88,EG Ampol Osborne Park,165.9,EG Ampol,-31.91058,115.81401
91,Ampol Foodary Subiaco,165.9,Ampol,-31.950616,115.824234
90,Coles Express Scarborough,165.9,Coles Express,-31.892841,115.757287
94,Ampol Foodary Westminster,165.9,Ampol,-31.867582,115.829765
93,Coles Express West Perth,165.9,Coles Express,-31.945494,115.839719
95,Ampol Foodary Yanchep,165.9,Ampol,-31.552063,115.639632
96,Caltex Yokine,165.9,Caltex,-31.904611,115.849565
82,Coles Express Malaga,165.9,Coles Express,-31.863512,115.879279
80,7-Eleven Joondalup,165.9,7-Eleven,-31.753934,115.765241
89,United Hepburn Heights,165.9,United,-31.81889,115.774096
84,BP Connect Wellington Rd,165.9,BP,-31.894607,115.896666
81,Coles Express Kingsley,165.9,Coles Express,-31.81975,115.805778
92,Coles Express Warwick (WA),165.9,Coles Express,-31.844434,115.812742
97,United Mt Lawley,166.5,United,-31.925836,115.88017
98,Vibe Wanneroo,166.5,Vibe,-31.751382,115.803426
99,Puma Alexander Heights,166.7,Puma,-31.829326,115.852831
100,United Lexia,166.9,United,-31.795189,115.899559
101,United Northbridge,166.9,United,-31.945612,115.852438
102,Vibe Bullsbrook,167.5,Vibe,-31.671935,116.031427
103,Better Choice Malaga,167.5,Better Choice,-31.855136,115.878229
104,NightOwl Shell Highgate,167.5,Shell,-31.938231,115.877113
106,Vibe Charles St,167.5,Vibe,-31.922312,115.850264
110,Vibe West Swan,167.5,Vibe,-31.839036,115.990655
107,Better Choice Tuart Hill,167.5,Better Choice,-31.897268,115.841447
108,7-Eleven Wanneroo,167.5,7-Eleven,-31.748986,115.801954
109,7-Eleven Wanneroo South,167.5,7-Eleven,-31.754313,115.804474
105,Vibe Nollamara,167.5,Vibe,-31.880514,115.840339
111,7-Eleven Wangara,167.7,7-Eleven,-31.801955,115.827751
116,BP Connect East Perth,167.9,BP,-31.95077,115.876572
113,Ampol Foodary Altone Road,167.9,Ampol,-31.871201,115.945179
114,Ampol Foodary Carine,167.9,Ampol,-31.846312,115.795363
120,Coles Express Jolimont,167.9,Coles Express,-31.947273,115.811941
122,Ampol Foodary Mosman Park,167.9,Ampol,-32.011969,115.755567
117,Coles Express Girrawheen,167.9,Coles Express,-31.834601,115.828903
118,Ampol Foodary Karrinyup,167.9,Ampol,-31.882078,115.796245
115,Coles Express Dianella,167.9,Coles Express,-31.905801,115.8827
123,Ampol Foodary Mt Lawley,167.9,Ampol,-31.925179,115.881917
112,7-Eleven Balga,167.9,7-Eleven,-31.856494,115.83739
130,BP 2go Woodvale,167.9,BP,-31.799887,115.795979
127,Ampol Foodary Wangara,167.9,Ampol,-31.787725,115.828285
124,Ampol Foodary Nedlands,167.9,Ampol,-31.97762,115.813656
125,BP Connect Main Street,167.9,BP,-31.896277,115.82855
119,EG Ampol Whitfords,167.9,EG Ampol,-31.796683,115.745505
121,Ampol Foodary Leederville,167.9,Ampol,-31.936816,115.840025
128,Coles Express Wanneroo Pearsall,167.9,Coles Express,-31.780031,115.808184
129,Coles Express Wembley,167.9,Coles Express,-31.941023,115.811858
126,Ampol Foodary Scarborough,167.9,Ampol,-31.893826,115.764402
131,United Quinns Rocks,169.5,United,-31.672657,115.708282
141,BP Koondoola,169.9,BP,-31.841924,115.858276
138,Coles Express Edgewater,169.9,Coles Express,-31.769548,115.778804
142,Coles Express Mosman Park,169.9,Coles Express,-32.005184,115.759304
140,BP Nookenburra,169.9,BP,-31.902714,115.799177
132,BP Ballajura,169.9,BP,-31.826611,115.877278
133,Coles Express Bayswater,169.9,Coles Express,-31.906734,115.92665
134,BP Caversham,169.9,BP,-31.871966,115.960195
135,Coles Express Claremont,169.9,Coles Express,-31.982195,115.78389
136,BP Clarkson,169.9,BP,-31.693579,115.724971
137,BP Connect Currambine,169.9,BP,-31.723736,115.74642
139,BP Greenwood North,169.9,BP,-31.82089,115.815729
147,BP Highgate,169.9,BP,-31.942556,115.867359
148,Coles Express Perth,169.9,Coles Express,-31.940953,115.863904
149,BP Connect Merriwa,169.9,BP,-31.670127,115.726195
150,BP Connect West Coast,169.9,BP,-31.894578,115.757975
151,BP Sorrento,169.9,BP,-31.832414,115.74792
152,Coles Express Wangara,169.9,Coles Express,-31.791963,115.852478
144,BP Connect North Perth,169.9,BP,-31.926673,115.851901
153,BP Connect Wembley,169.9,BP,-31.940547,115.820095
146,BP Connect Padbury,169.9,BP,-31.813708,115.75932
143,BP Rosegarden,169.9,BP,-31.979719,115.798235
145,BP Connect Beaumauris,169.9,BP,-31.752351,115.74064
154,BP Morley,171.9,BP,-31.89446,115.90533
155,BP Edgewater,173.7,BP,-31.763449,115.773396
156,BP Balcatta,173.9,BP,-31.865568,115.808055
157,BP Beldon,173.9,BP,-31.770792,115.767224
158,BP Greenwood,173.9,BP,-31.832441,115.802091
159,BP Henley Brook,173.9,BP,-31.795951,115.978636
160,BP Mindarie,173.9,BP,-31.677064,115.711197
161,BP Mullaloo,173.9,BP,-31.780051,115.744053
162,Ampol Rous Head,173.9,Ampol,-32.041146,115.738844
163,BP Dog Swamp,174.9,BP,-31.911261,115.846928
164,Coles Express Butler,175.9,Coles Express,-31.638264,115.69551
165,United Swanbourne,184.9,United,-31.983608,115.767278
0,Costco Casuarina,155.7,Costco,-32.233194,115.853241
1,Costco Perth Airport,155.7,Costco,-31.940377,115.951869
2,United Perth Airport,156.7,United,-31.956366,115.969749
3,Liberty Gosnells,159.5,Liberty,-32.075216,116.005816
4,Liberty O'Connor,159.5,Liberty,-32.063065,115.792017
5,Ampol Foodary Gosnells North,159.9,Ampol,-32.064148,115.999536
6,Atlas Fuel Ascot,161.5,Atlas,-31.925213,115.951987
8,Vibe Kwinana OPT,161.5,Vibe,-32.245503,115.78259
10,Liberty Naval Base,161.5,Liberty,-32.197618,115.783018
9,Vibe Kwinana Town Centre,161.5,Vibe,-32.244599,115.815592
7,Liberty Beckenham,161.5,Liberty,-32.022054,115.954779
11,Ampol Foodary Belmont,161.9,Ampol,-31.937734,115.933447
12,Atlas Fuel Kwinana,161.9,Atlas,-32.235848,115.780215
13,Ampol Foodary Kwinana,161.9,Ampol,-32.248836,115.78268
14,Ampol Foodary O'Connor,161.9,Ampol,-32.05517,115.793146
15,Vibe Ascot,162.3,Vibe,-31.935968,115.934361
16,Atlas Fuel Welshpool,162.5,Atlas,-31.993707,115.919139
17,United Anketell,162.9,United,-32.211351,115.855637
18,Vibe Welshpool,162.9,Vibe,-31.994327,115.930681
19,Better Choice Naval Base,163.5,Better Choice,-32.206745,115.784712
23,Puma Munster,163.7,Puma,-32.122463,115.784194
24,Puma Warnbro,163.7,Puma,-32.326142,115.749757
21,Vibe Canning Vale,163.7,Vibe,-32.075096,115.922947
22,Puma Guildford,163.7,Puma,-31.901203,115.969087
20,Vibe Armadale,163.7,Vibe,-32.158168,116.001834
36,7-Eleven Maddington South,163.9,7-Eleven,-32.055377,115.9886
35,Caltex Forrestdale,163.9,Caltex,-32.14267,115.974144
25,Ampol Foodary Melville,163.9,Ampol,-32.031217,115.815428
26,7-Eleven Ascot,163.9,7-Eleven,-31.941776,115.925077
27,Ampol Foodary Ascot,163.9,Ampol,-31.94098,115.926337
28,Ampol Foodary Byford,163.9,Ampol,-32.226368,116.008
29,7-Eleven Byford South,163.9,7-Eleven,-32.222078,116.005916
30,Caltex Byford,163.9,Caltex,-32.207484,115.977648
31,Ampol Foodary Livingston,163.9,Ampol,-32.087082,115.916536
32,EG Ampol Canning Vale,163.9,EG Ampol,-32.072873,115.925469
37,EG Ampol Maddington West,163.9,EG Ampol,-32.049324,115.977502
38,Caltex Murdoch,163.9,Caltex,-32.079195,115.842898
39,Ampol Foodary Murdoch,163.9,Ampol,-32.063419,115.835712
40,Ampol Foodary Riverton,163.9,Ampol,-32.03846,115.896732
41,Ampol Foodary Rivervale,163.9,Ampol,-31.953623,115.913619
42,Ampol Foodary Rockingham,163.9,Ampol,-32.2769,115.749819
43,EG Ampol South Lake,163.9,EG Ampol,-32.115172,115.837032
44,EG Ampol Southern River,163.9,EG Ampol,-32.096399,115.935881
45,Ampol Willetton,163.9,Ampol,-32.039109,115.88406
34,Ampol Foodary Cannington,163.9,Ampol,-32.017556,115.934873
33,7-Eleven Canning Vale,163.9,7-Eleven,-32.092476,115.923934
46,BP Kelmscott,164.7,BP,-32.118708,116.016589
47,BP Langford,164.7,BP,-32.04723,115.932375
48,BP Connect Ascot (WA),164.9,BP,-31.940482,115.927498
49,7-Eleven Bentley,164.9,7-Eleven,-32.001754,115.918523
50,BP Canning Vale,164.9,BP,-32.082253,115.909084
51,7-Eleven Forrestdale,164.9,7-Eleven,-32.123564,115.956257
52,BP Naval Base,164.9,BP,-32.199892,115.781843
53,Vibe Byford,165.3,Vibe,-32.221206,116.009206
54,United Kewdale,165.3,United,-31.990047,115.939258
55,United Leda,165.3,United,-32.260187,115.806552
56,Puma Burswood,165.4,Puma,-31.960377,115.901915
57,United Armadale,165.5,United,-32.161492,116.0176
58,United Bibra Lake,165.5,United,-32.093798,115.802588
59,United Byford,165.5,United,-32.2154436,116.0080304
60,Vibe Hamilton Hill,165.5,Vibe,-32.086143,115.777233
61,Vibe Jandakot,165.5,Vibe,-32.090758,115.868846
62,Vibe Kwinana,165.5,Vibe,-32.247525,115.773262
63,NightOwl Shell Maddington,165.5,Shell,-32.045398,115.988733
64,United Myaree,165.5,United,-32.046212,115.812611
65,Vibe Piara Waters,165.5,Vibe,-32.146852,115.922099
66,Vibe Port Kennedy,165.5,Vibe,-32.371578,115.762171
67,NightOwl Shell Redcliffe,165.5,Shell,-31.929508,115.945947
68,United South Lake,165.5,United,-32.111481,115.838833
69,Vibe Spearwood,165.5,Vibe,-32.105033,115.782419
70,Vibe Yangebup,165.5,Vibe,-32.116891,115.795446
75,Puma Parmelia,165.7,Puma,-32.247336,115.816983
74,7-Eleven Kelmscott Central,165.7,7-Eleven,-32.118987,116.017576
71,Puma Armadale Central,165.7,Puma,-32.151032,116.01409
76,Puma Maddington,165.7,Puma,-32.034609,116.000915
77,Puma Welshpool,165.7,Puma,-31.991465,115.946469
73,Puma Como,165.7,Puma,-31.999152,115.862362
72,Puma Belmont,165.7,Puma,-31.946289,115.939633
78,Caltex Baldivis,165.9,Caltex,-32.353665,115.80765
81,Coles Express Bentley,165.9,Coles Express,-32.000633,115.918698
83,7-Eleven Booragoon,165.9,7-Eleven,-32.039537,115.822893
85,Coles Express Bull Creek,165.9,Coles Express,-32.063327,115.857827
86,Ampol Foodary Bannister Road,165.9,Ampol,-32.06343,115.926402
88,7-Eleven Carlisle,165.9,7-Eleven,-31.971624,115.918341
93,Coles Express Karawara,165.9,Coles Express,-32.011927,115.884145
90,Caltex Hamilton Hill South,165.9,Caltex,-32.093152,115.783081
82,Coles Express Bicton,165.9,Coles Express,-32.03413,115.792776
91,Caltex Hamilton Hill North,165.9,Caltex,-32.075531,115.779519
79,7-Eleven Baldivis,165.9,7-Eleven,-32.308362,115.822017
87,EG Ampol Cannington,165.9,EG Ampol,-32.01664,115.938196
80,Ampol Foodary Baldivis,165.9,Ampol,-32.330641,115.820995
89,7-Eleven Cockburn Central,165.9,7-Eleven,-32.120001,115.846548
92,Ampol Foodary Cockburn Central,165.9,Ampol,-32.126786,115.862138
84,Coles Express Brentwood,165.9,Coles Express,-32.041448,115.848868
94,7-Eleven Kardinya,165.9,7-Eleven,-32.067327,115.815185
97,Coles Express Langford,165.9,Coles Express,-32.031879,115.938841
99,7-Eleven Queens Park,165.9,7-Eleven,-31.997151,115.946773
102,Coles Express South Perth,165.9,Coles Express,-31.974773,115.881635
109,Coles Express Willetton,165.9,Coles Express,-32.039109,115.893756
104,Coles Express Southern River,165.9,Coles Express,-32.103521,115.934721
105,Ampol Foodary Thornlie,165.9,Ampol,-32.061092,115.939257
101,Ampol Foodary South Lake,165.9,Ampol,-32.108271,115.829221
107,Coles Express Waikiki,165.9,Coles Express,-32.315121,115.753183
108,EG Ampol Warnbro,165.9,EG Ampol,-32.345819,115.761444
95,7-Eleven Kelmscott,165.9,7-Eleven,-32.128644,115.999775
100,Coles Express Westfield,165.9,Coles Express,-32.130396,116.000966
103,7-Eleven Southern River,165.9,7-Eleven,-32.107884,115.939718
96,Ampol Foodary Kewdale,165.9,Ampol,-31.98365,115.955901
106,7-Eleven Thornlie,165.9,7-Eleven,-32.06954,115.952095
98,Coles Express Myaree,165.9,Coles Express,-32.039649,115.815283
110,United Southern River,166.5,United,-32.121136,115.954582
111,United East Victoria Park,166.7,United,-31.98781,115.905402
112,Liberty Calista,166.8,Liberty,-32.248776,115.808019
113,United Hamilton Hill,166.9,United,-32.074926,115.780931
114,Puma Victoria Park,167.2,Puma,-31.969957,115.891981
115,United Maddington,167.3,United,-32.042356,115.99131
116,7-Eleven Harrisdale,167.5,7-Eleven,-32.125599,115.92601
117,Ampol Foodary Applecross,167.9,Ampol,-32.01154,115.850201
118,BP 2go Armadale,167.9,BP,-32.148535,116.020351
143,Ampol Foodary Yangebup,167.9,Ampol,-32.127568,115.799158
128,BP Connect Kwinana Hub,167.9,BP,-32.244379,115.81264
121,Ampol Foodary East Fremantle,167.9,Ampol,-32.040657,115.766241
124,7-Eleven Golden Bay,167.9,7-Eleven,-32.420777,115.761055
123,Ampol Foodary Forrestdale,167.9,Ampol,-32.146558,115.965549
122,Coles Express Victoria Park,167.9,Coles Express,-31.985535,115.896186
130,BP Connect Myaree,167.9,BP,-32.045815,115.82024
126,Ampol Foodary Gosnells,167.9,Ampol,-32.079794,115.988117
127,BP Kardinya,167.9,BP,-32.068996,115.819959
120,Ampol Foodary Bentley,167.9,Ampol,-32.012142,115.914131
125,7-Eleven Gosnells,167.9,7-Eleven,-32.089802,115.998682
140,Ampol Foodary Warnbro,167.9,Ampol,-32.328853,115.758691
139,BP Connect Palm Springs,167.9,BP,-32.348315,115.761753
132,EG Ampol Port Kennedy,167.9,EG Ampol,-32.373781,115.75592
133,BP Connect Riverton,167.9,BP,-32.038908,115.904355
129,Coles Express Leeming,167.9,Coles Express,-32.079015,115.858415
137,BP Connect Phoenix,167.9,BP,-32.093975,115.783039
136,EG Ampol South Fremantle,167.9,EG Ampol,-32.073721,115.759177
135,Ampol Foodary Secret Harbour,167.9,Ampol,-32.407011,115.759423
138,Ampol Foodary Thornlie Square,167.9,Ampol,-32.055755,115.96194
131,Coles Express Palmyra,167.9,Coles Express,-32.047319,115.779904
119,Coles Express Beeliar,167.9,Coles Express,-32.128112,115.798736
141,BP 2go Burrendah,167.9,BP,-32.058316,115.882114
142,BP 2go Collins Road,167.9,BP,-32.055655,115.903652
134,7-Eleven Rockingham Central,167.9,7-Eleven,-32.291686,115.743091
144,Puma Lynwood,168.4,Puma,-32.035639,115.927034
145,Lori's Fuel Supply,168.7,Independent,-32.135359,116.009481
146,Coles Express Maddington,168.9,Coles Express,-32.055352,115.979908
147,Better Choice Como,169.5,Better Choice,-31.994235,115.859554
148,Ampol Maddington Truck Stop,169.7,Ampol,-32.035207,115.999195
149,BP Baldivis West,169.8,BP,-32.309663,115.796699
150,BP Applecross,169.9,BP,-32.01507,115.84318
171,BP Kewdale,169.9,BP,-31.981726,115.975223
152,Coles Express Armadale,169.9,Coles Express,-32.168864,116.014864
155,BP Baldivis Southbound Travel Centre,169.9,BP,-32.309281,115.83277
156,Coles Express Casuarina (WA),169.9,Coles Express,-32.232326,115.848215
151,Coles Express Brookdale,169.9,Coles Express,-32.147485,115.985303
165,BP East Rockingham,169.9,BP,-32.276459,115.780512
160,BP Thornlie,169.9,BP,-32.063416,115.936309
158,7-Eleven Bibra Lake,169.9,7-Eleven,-32.101411,115.801664
157,BP Bibra Lake,169.9,BP,-32.103888,115.804171
159,BP Bull Creek,169.9,BP,-32.057051,115.865845
161,BP Canning Vale OPT,169.9,BP,-32.059609,115.930743
162,BP 2go Cannington,169.9,BP,-32.025805,115.941398
163,BP Connect Carlisle,169.9,BP,-31.972228,115.918797
164,Coles Express Cloverdale,169.9,Coles Express,-31.965057,115.933164
172,BP Welshpool,169.9,BP,-31.986384,115.936881
154,BP Baldivis Northbound Travel Centre,169.9,BP,-32.309137,115.830397
167,BP Forrestdale,169.9,BP,-32.137312,115.969456
168,Coles Express Fremantle,169.9,Coles Express,-32.063235,115.756663
153,7-Eleven Haynes,169.9,7-Eleven,-32.147485,115.984399
170,BP Huntingdale,169.9,BP,-32.071421,115.966472
173,Coles Express Mount Pleasant,169.9,Coles Express,-32.012511,115.850077
174,BP Port Kennedy,169.9,BP,-32.371178,115.763127
175,BP Redcliffe,169.9,BP,-31.930469,115.944728
169,BP Westgate,169.9,BP,-32.045365,115.753085
166,7-Eleven Rockingham,169.9,7-Eleven,-32.276643,115.777477
176,BP Connect Rockingham Park,169.9,BP,-32.289729,115.741484
179,BP Connect South Perth,169.9,BP,-31.972713,115.852043
177,OTR Roleystone,169.9,Caltex,-32.115893,116.083267
178,BP South Fremantle,169.9,BP,-32.076871,115.760944
180,7-Eleven Success,169.9,7-Eleven,-32.126356,115.839346
181,BP Connect Thomsons Lake,169.9,BP,-32.129169,115.853726
182,BP Woodbridge,169.9,BP,-31.890354,115.995715
183,Puma Henderson OPT,173.7,Puma,-32.15551,115.770485
185,BP Beeliar,173.9,BP,-32.127157,115.843357
186,Ampol Welshpool Diesel Stop,173.9,Ampol,-31.990084,115.962119
184,Ampol Bibra Lake Diesel Stop,173.9,Ampol,-32.1094,115.8097
187,BP Attadale,174.9,BP,-32.031651,115.808961
188,BP Waikiki,174.9,BP,-32.310013,115.732329
189,Coles Express Bibra Lake,175.9,Coles Express,-32.116954,115.807471
190,Coles Express Canning Vale,175.9,Coles Express,-32.070349,115.895596
191,Coles Express Kewdale,175.9,Coles Express,-31.980262,115.958507
192,Coles Express Kwinana Beach,175.9,Coles Express,-32.243693,115.776587
193,Karnup Roadhouse,178.9,BP,-32.427429,115.77467
194,Shell Jarrahdale,179.9,Shell,-32.308753,116.006734
195,Serpentine Falls Roadhouse,183.9,Independent,-32.364781,115.991703
196,Mundijong Store & Deli,192.0,Independent,-32.29564,115.985466
